timestamp,Qx_sensor1,Qy_sensor1,Qz_sensor1,Qw_sensor1,Heading_sensor1,Pitch_sensor1,Roll_sensor1,Qx_sensor2,Qy_sensor2,Qz_sensor2,Qw_sensor2,Heading_sensor2,Pitch_sensor2,Roll_sensor2,Lateral Postion,Lateral Bending,Lateral Twist,Lateral Velocity,Bending Velocity,Twist Velocity,Lateral Acceleration,Bending acceleration,Twist Acceleration,Vbat,diff
91.81208801,0.171373084,0.68383503,0.178146884,-0.686487198,139.7409973,89.41082764,-82.92710114,1,0.000221891,0.000566701,0.000151648,14.06739235,0.064935297,0.025436709,90.58243561,61.39909363,-89.94203949,0.457763672,2.136230469,0.762939453,0,0,0,3.575433016,0.02104187
91.83312988,0.170659125,0.683643699,0.178038344,-0.686883628,142.0291901,89.34718323,-80.57025146,1,0.000221891,0.000566701,0.000151648,14.06739235,0.064935297,0.025436709,90.70503235,61.46753311,-89.87001801,0.457763672,2.136230469,0.915527344,0,0,0,3.575333118,0.020980835
91.85411072,0.170673832,0.683649182,0.178039476,-0.686874211,141.971344,89.34838104,-80.62914276,1,0.000221891,0.000566701,0.000151648,14.06739235,0.064935297,0.025436709,90.70199585,61.46621323,-89.87191772,0.457763672,2.136230469,0.762939453,0,0,0,3.575633287,0.020896912
91.87500763,0.171403542,0.682958782,0.178381234,-0.687290609,150.2025299,89.33500671,-72.48750305,1,0.000221891,0.000566701,0.000151648,14.06739235,0.064935297,0.025436709,90.86601257,61.37586212,-89.67555237,0.457763672,2.136230469,0.762939453,0,0,0,3.575633287,0.021026611
91.89603424,0.171254903,0.683087826,0.178262547,-0.68723017,148.947113,89.34062195,-73.72086334,1,0.000221891,0.000566701,0.000151648,14.06739235,0.064935297,0.025436709,90.83662415,61.39836121,-89.70742035,0.457763672,2.136230469,0.762939453,0,0,0,3.575533152,0.021362305
91.91739655,0.17125991,0.683088124,0.178270936,-0.687226415,148.9109497,89.3403244,-73.75817108,1,0.000221891,0.000566701,0.000151648,14.06739235,0.064935297,0.025436709,90.83608246,61.39723969,-89.70825195,0.457763672,2.136230469,0.762939453,0,0,0,3.575633287,0.021484375
91.93888092,0.171561942,0.683290958,0.178246409,-0.68695581,147.105545,89.38292694,-75.58669281,1,0.000221891,0.000566701,0.000151648,14.06739235,0.064935297,0.025436709,90.74443817,61.37439728,-89.77259827,0.457763672,2.136230469,0.762939453,0,0,0,3.575633287,0.021209717
91.96009064,0.171403408,0.683592439,0.17808944,-0.686736047,143.5395813,89.40127563,-79.12608337,1,0.000221891,0.000566701,0.000151648,14.06739235,0.064935297,0.025436709,90.65940857,61.40110779,-89.85773468,0.457763672,2.136230469,0.762939453,0,0,0,3.575433016,0.021751404
91.98184204,0.171409473,0.683592856,0.178080693,-0.686736405,143.588089,89.40258789,-79.07744598,1,0.000221891,0.000566701,0.000151648,14.06739235,0.064935297,0.025436709,90.65877533,61.40133286,-89.85712433,0.457763672,2.136230469,0.762939453,0,0,0,3.575433016,0.02016449
92.00200653,0.171298146,0.683418989,0.178080842,-0.686937094,145.7683716,89.38039398,-76.88791656,1,0.000221891,0.000566701,0.000151648,14.06739235,0.064935297,0.025436709,90.7250061,61.41038132,-89.80020905,0.457763672,2.136230469,0.762939453,0,0,0,3.575333118,0.021682739
92.02368927,0.171303645,0.683426082,0.178084254,-0.686927795,145.6666565,89.38134766,-76.99018097,1,0.000221891,0.000566701,0.000151648,14.06739235,0.064935297,0.025436709,90.72222137,61.4096489,-89.8028183,0.457763672,2.136230469,0.762939453,0,0,0,3.575333118,0.020957947
92.04464722,0.171735212,0.683516264,0.178133428,-0.686717629,144.9547424,89.42087555,-77.74246979,1,0.000221891,0.000566701,0.000151648,14.06739235,0.064935297,0.025436709,90.65643311,61.36966705,-89.83665466,0.457763672,2.136230469,0.762939453,0,0,0,3.575232983,0.020378113
92.06502533,0.172422931,0.683291674,0.178347707,-0.686713159,148.4171753,89.44573975,-74.35531616,1,0.000221891,0.000566701,0.000151648,14.06739235,0.064935297,0.025436709,90.67163849,61.29412079,-89.78189087,0.457763672,2.136230469,0.762939453,0,0,0,3.575433016,0.020988464
92.08601379,0.172437146,0.683287382,0.178343996,-0.686714888,148.5365753,89.44750977,-74.23674011,1,0.000221891,0.000566701,0.000151648,14.06739235,0.064935297,0.025436709,90.67186737,61.29324722,-89.78017426,0.457763672,2.136230469,0.762939453,0,0,0,3.575333118,0.021369934
92.10738373,0.171588331,0.683265865,0.17812565,-0.68700546,148.1383057,89.38994598,-74.54595947,1,0.000221891,0.000566701,0.000151648,14.06739235,0.064935297,0.025436709,90.7506485,61.3822403,-89.75408173,0.457763672,2.136230469,0.762939453,0,0,0,3.575232983,0.021232605
92.12861633,0.170971617,0.683636308,0.177818492,-0.686870277,143.6113586,89.38706207,-78.99591827,1,0.000221891,0.000566701,0.000151648,14.06739235,0.064935297,0.025436709,90.68170929,61.45981979,-89.84883881,0.457763672,2.136230469,0.762939453,0,0,0,3.575032711,0.020561218
92.14917755,0.170976594,0.683640301,0.17781879,-0.686865032,143.5631409,89.38802338,-79.04416656,1,0.000221891,0.000566701,0.000151648,14.06739235,0.064935297,0.025436709,90.68000031,61.45938492,-89.85015869,0.457763672,2.136230469,0.762939453,0,0,0,3.575032711,0.021369934
92.17054749,0.172035635,0.683573425,0.178056821,-0.686605394,145.1102905,89.45427704,-77.6053009,1,0.000221891,0.000566701,0.000151648,14.06739235,0.064935297,0.025436709,90.61269379,61.3510704,-89.84888458,0.457763672,2.136230469,0.762939453,0,0,0,3.574832439,0.021202087
92.19174957,0.172615081,0.683195829,0.178323358,-0.686766684,150.4465485,89.45571136,-72.34000397,1,0.000221891,0.000566701,0.000151648,14.06739235,0.064935297,0.025436709,90.68679047,61.28001785,-89.7486496,0.457763672,2.136230469,0.762939453,0,0,0,3.574832439,0.021965027
92.2137146,0.172622353,0.683201075,0.178329483,-0.686757982,150.3516083,89.45571136,-72.43602753,1,0.000221891,0.000566701,0.000151648,14.06739235,0.064935297,0.025436709,90.68445587,61.2788887,-89.75088501,0.457763672,2.136230469,0.762939453,0,0,0,3.574732304,0.021934509
92.23564911,0.172696277,0.683160543,0.178335309,-0.686778247,151.1042023,89.45823669,-71.69007111,1,0.000221891,0.000566701,0.000151648,14.06739235,0.064935297,0.025436709,90.69143677,61.27220154,-89.73822021,0.457763672,2.136230469,0.762939453,0,0,0,3.574732304,0.022422791
92.2580719,0.172236755,0.683253109,0.178222567,-0.686830819,149.2649841,89.4359436,-73.48160553,1,0.000221891,0.000566701,0.000151648,14.06739235,0.064935297,0.025436709,90.70013428,61.32007217,-89.75849915,0.457763672,2.136230469,0.762939453,0,0,-136.9729767,3.574732304,0.02154541
92.27961731,0.172230199,0.683257759,0.178233549,-0.686824977,149.1174316,89.43489838,-73.62943268,1,0.000221891,0.000566701,0.000151648,14.06739235,0.064935297,0.025436709,90.69914246,61.31970215,-89.76095581,0.457763672,2.136230469,0.762939453,0,0,0,3.574431896,0.021995544
92.30161285,0.172413647,0.683226168,0.178292334,-0.686795056,149.6700287,89.44327545,-73.09716797,1,0.000221891,0.000566701,0.000151648,14.06739235,0.064935297,0.025436709,90.6938858,61.29944992,-89.75579071,0.457763672,2.136230469,0.762939453,0,0,0,3.574632168,0.021995544
92.3236084,0.17291984,0.682833254,0.178532451,-0.686996162,155.0042419,89.43421173,-67.82526398,1,0.000221891,0.000566701,0.000151648,14.06739235,0.064935297,0.025436709,90.77872467,61.23658371,-89.64874268,0.457763672,2.136230469,0.762939453,0,0,0,3.574632168,0.021987915
92.34559631,0.172913581,0.682834804,0.178527787,-0.686997354,154.9937134,89.43386078,-67.83500671,1,0.000221891,0.000566701,0.000151648,14.06739235,0.064935297,0.025436709,90.77874756,61.23749161,-89.64884186,0.457763672,2.136230469,0.762939453,0,0,0,3.574732304,0.02230072
92.36789703,0.173410609,0.682932615,0.178604543,-0.686754882,154.8130035,89.4777298,-68.06360626,1,0.000221891,0.000566701,0.000151648,14.06739235,0.064935297,0.025436709,90.70490265,61.18976974,-89.68755341,0.457763672,2.136230469,0.762939453,0,0,0,3.574231863,0.021606445
92.38950348,0.173391163,0.682832479,0.178601891,-0.686860144,156.164917,89.46734619,-66.70999908,1,0.000221891,0.000566701,0.000151648,14.06739235,0.064935297,0.025436709,90.73907471,61.19149017,-89.65478516,0.457763672,2.136230469,0.762939453,0,0,0,3.574131727,0.021995544
92.41149902,0.17338863,0.6828385,0.178607285,-0.686853349,156.0344543,89.46734619,-66.84039307,1,0.000221891,0.000566701,0.000151648,14.06739235,0.064935297,0.025436709,90.73731995,61.19124985,-89.6572113,0.457763672,2.136230469,0.762939453,0,0,0,3.574131727,0.02205658
92.4335556,0.173723444,0.683058023,0.17864202,-0.686541319,153.7838287,89.5118103,-69.12221527,1,0.000221891,0.000566701,0.000151648,14.06739235,0.064935297,0.025436709,90.63775635,61.16072083,-89.73167419,0.457763672,2.136230469,0.762939453,0,0,0,3.574131727,0.021911621
92.45546722,0.17339474,0.683509231,0.17842105,-0.686232746,146.9059601,89.53733063,-75.95372009,1,0.000221891,0.000566701,0.000151648,14.06739235,0.064935297,0.025436709,90.51911163,61.2071228,-89.85929108,0.457763672,2.136230469,0.762939453,0,0,0,3.574331999,0.022438049
92.47790527,0.173382938,0.683506906,0.178414539,-0.686239719,146.9619293,89.53648376,-75.89644623,1,0.000221891,0.000566701,0.000151648,14.06739235,0.064935297,0.025436709,90.52085876,61.20866013,-89.85799408,0.457763672,2.136230469,0.762939453,0,0,0,3.574131727,0.021568298
92.49947357,0.1727608,0.683698416,0.178220168,-0.686256409,143.5255737,89.51221466,-79.26459503,1,0.000221891,0.000566701,0.000151648,14.06739235,0.064935297,0.025436709,90.5109024,61.27701187,-89.90370941,0.457763672,2.136230469,0.762939453,0,0,0,3.574131727,0.02191925
92.52139282,0.171934187,0.683977485,0.17793189,-0.6862607,139.2142792,89.48036194,-83.48247528,1,0.000221891,0.000566701,0.000151648,14.06739235,0.064935297,0.025436709,90.48925018,61.37034225,-89.97033691,0.457763672,2.136230469,0.762939453,0,0,0,3.574031591,0.022094727
92.54348755,0.17193234,0.683973968,0.17794098,-0.686262369,139.2233276,89.47998047,-83.47436523,1,0.000221891,0.000566701,0.000151648,14.06739235,0.064935297,0.025436709,90.49055481,61.36974335,-89.96994781,0.457763672,2.136230469,0.762939453,0,0,-137.466568,3.573931456,0.022094727
92.56558228,0.170850813,0.684042215,0.177624807,-0.686546266,138.6025543,89.41549683,-83.97820282,1,0.000221891,0.000566701,0.000151648,14.06739235,0.064935297,0.025436709,90.55893707,61.48648071,-89.96549225,0.457763672,2.136230469,0.762939453,0,0,0,3.573931456,0.022071838
92.58765411,0.170195758,0.683836579,0.177525103,-0.686939478,141.2292328,89.35532379,-81.28824615,1,0.000221891,0.000566701,0.000151648,14.06739235,0.064935297,0.025436709,90.68144989,61.54925537,-89.88936615,0.457763672,2.136230469,0.762939453,0,0,0,3.574031591,0.021766663
92.60942078,0.170201644,0.68384105,0.177521348,-0.686934531,141.1940155,89.35653687,-81.32388306,1,0.000221891,0.000566701,0.000151648,14.06739235,0.064935297,0.025436709,90.67948914,61.54908371,-89.89052582,0.305175781,2.136230469,0.762939453,0,0,0,3.574131727,0.021881104
92.63130188,0.170973003,0.683529079,0.177791148,-0.686983645,145.1975403,89.38071442,-77.40730286,1,0.000221891,0.000566701,0.000151648,14.06739235,0.064935297,0.025436709,90.71679688,61.4618454,-89.81134796,0.457763672,2.136230469,0.762939453,0,0,0,3.574131727,0.022003174
92.65330505,0.170411199,0.683804572,0.177507073,-0.686922491,142.0127258,89.37162018,-80.521492,1,0.000221891,0.000566701,0.000151648,14.06739235,0.064935297,0.025436709,90.6739502,61.53274918,-89.87735748,0.457763672,2.136230469,0.762939453,0,0,0,3.574231863,0.022125244
92.6754303,0.170410484,0.683804154,0.177505583,-0.686923504,142.0245667,89.37192535,-80.50937653,1,0.000221891,0.000566701,0.000151648,14.06739235,0.064935297,0.025436709,90.67415619,61.5329361,-89.87709045,0.457763672,2.136230469,0.762939453,0,0,0,3.574231863,0.021995544
92.69742584,0.171309873,0.684013963,0.177623242,-0.686460316,139.5153198,89.45106506,-83.10373688,1,0.000221891,0.000566701,0.000151648,14.06739235,0.064935297,0.025436709,90.52986908,61.44826508,-89.95607758,0.457763672,2.136230469,0.762939453,0,0,0,3.574231863,0.02191925
92.71934509,0.17158927,0.683886886,0.177737147,-0.686487734,141.2815247,89.45932007,-81.37024689,1,0.000221891,0.000566701,0.000151648,14.06739235,0.064935297,0.025436709,90.54801178,61.41532135,-89.92411041,0.457763672,2.136230469,0.762939453,0,0,0,3.574832439,0.02192688
92.74127197,0.171593755,0.683877587,0.177740037,-0.686495185,141.4194946,89.45932007,-81.23291779,1,0.000221891,0.000566701,0.000151648,14.06739235,0.064935297,0.025436709,90.5506897,61.41470718,-89.9213028,0.457763672,2.136230469,0.762939453,0,0,0,3.575032711,0.021934509
92.76320648,0.172179729,0.683557987,0.177965328,-0.686608374,146.184967,89.47065735,-76.53504181,1,0.000221891,0.000566701,0.000151648,14.06739235,0.064935297,0.025436709,90.6058197,61.34667587,-89.83605194,0.457763672,2.136230469,0.762939453,0,0,0,3.575433016,0.022094727
92.78530121,0.172435239,0.683215141,0.178115547,-0.686846495,150.9922638,89.45427704,-71.76164246,1,0.000221891,0.000566701,0.000151648,14.06739235,0.064935297,0.025436709,90.6960144,61.31238556,-89.73706818,0.457763672,2.136230469,0.762939453,0,0,0,3.575433016,0.021881104
92.80718231,0.172424063,0.683218956,0.178118601,-0.686844707,150.8869476,89.45355988,-71.8666153,1,0.000221891,0.000566701,0.000151648,14.06739235,0.064935297,0.025436709,90.6957016,61.31306076,-89.73857117,0.457763672,2.136230469,0.762939453,0,0,0,3.575933695,0.022026062
92.82920837,0.172847629,0.683471262,0.178121284,-0.686486423,148.1779785,89.50821686,-74.61120605,1,0.000221891,0.000566701,0.000151648,14.06739235,0.064935297,0.025436709,90.57781982,61.27781677,-89.82125854,0.457763672,2.136230469,0.762939453,0,0,0,3.576234102,0.021965027
92.8511734,0.17197293,0.683573365,0.177835807,-0.68667841,146.2771606,89.46258545,-76.41481781,1,0.000221891,0.000566701,0.000151648,14.06739235,0.064935297,0.025436709,90.61833954,61.37475586,-89.82997894,0.457763672,2.136230469,0.762939453,0,0,0,3.576234102,0.022010803
92.8731842,0.171968266,0.68358016,0.177839637,-0.686671793,146.1405334,89.46222687,-76.55157471,1,0.000221891,0.000566701,0.000151648,14.06739235,0.064935297,0.025436709,90.61649323,61.37482834,-89.83252716,0.457763672,2.136230469,0.915527344,0,0,0,3.576334238,0.022720337
92.89590454,0.171899796,0.683761954,0.177731201,-0.686536074,143.8050385,89.47735596,-78.87212372,1,0.000221891,0.000566701,0.000151648,14.06739235,0.064935297,0.025436709,90.56295776,61.3897934,-89.88272095,0.457763672,2.136230469,0.762939453,0,0,0,3.576634407,0.021522522
92.91742706,0.172673136,0.683391213,0.178055331,-0.68662709,149.4246216,89.49139404,-73.34453583,1,0.000221891,0.000566701,0.000151648,14.06739235,0.064935297,0.025436709,90.61869049,61.2977829,-89.78946686,0.457763672,2.136230469,0.762939453,0,0,0,3.576534271,0.021705627
92.93913269,0.172681525,0.683392584,0.178063691,-0.686621428,149.3703613,89.49139404,-73.40002441,1,0.000221891,0.000566701,0.000151648,14.06739235,0.064935297,0.025436709,90.61751556,61.2963829,-89.79063416,0.457763672,2.136230469,0.762939453,0,0,0,3.576834679,0.021942139
92.96107483,0.173571527,0.683405519,0.178319588,-0.686317742,149.9810333,89.54932404,-72.88526917,1,0.000221891,0.000566701,0.000151648,14.06739235,0.064935297,0.025436709,90.5381546,61.20074844,-89.81697845,0.457763672,2.136230469,0.762939453,0,0,0,3.576834679,0.022010803
92.98308563,0.174238831,0.683117449,0.178590402,-0.686365008,155.2311401,89.5607605,-67.71341705,1,0.000221891,0.000566701,0.000151648,14.06739235,0.064935297,0.025436709,90.57518005,61.12208176,-89.74681091,0.457763672,2.136230469,0.762939453,0,0,0,3.576834679,0.022338867
93.0054245,0.174243525,0.683118939,0.178581312,-0.686364651,155.3023987,89.561203,-67.64181519,1,0.000221891,0.000566701,0.000151648,14.06739235,0.064935297,0.025436709,90.57430267,61.12244797,-89.74652863,0.457763672,2.136230469,0.762939453,0,0,0,3.577135086,0.02154541
93.02696991,0.173946753,0.683099329,0.178557098,-0.68646574,154.6201477,89.53775024,-68.29750824,1,0.000221891,0.000566701,0.000151648,14.06739235,0.064935297,0.025436709,90.60569,61.14922714,-89.73793793,0.457763672,2.136230469,0.762939453,0,0,0,3.577135086,0.02003479
93.0470047,0.173946291,0.6831038,0.178559318,-0.686460853,154.5284119,89.53817749,-68.38896942,1,0.000221891,0.000566701,0.000151648,14.06739235,0.064935297,0.025436709,90.60427856,61.14908218,-89.73957825,0.457763672,2.136230469,0.762939453,0,0,0,3.577235222,0.021125793
93.06813049,0.173387095,0.683489561,0.178357199,-0.686270773,147.682785,89.53817749,-75.17114258,1,0.000221891,0.000566701,0.000151648,14.06739235,0.064935297,0.025436709,90.52622986,61.21307373,-89.8474884,0.457763672,2.136230469,0.762939453,0,0,0,3.577135086,0.020866394
93.08899689,0.173024222,0.683535159,0.17830047,-0.686331809,146.3600769,89.51664734,-76.45874023,1,0.000221891,0.000566701,0.000151648,14.06739235,0.064935297,0.025436709,90.54191589,61.24816132,-89.85739136,0.457763672,2.136230469,0.762939453,0,0,0,3.577235222,0.02104187
93.11003876,0.173027843,0.683547199,0.178295955,-0.686320066,146.1943665,89.51826477,-76.62441254,1,0.000221891,0.000566701,0.000151648,14.06739235,0.064935297,0.025436709,90.53769684,61.24824524,-89.86092377,0.457763672,2.136230469,0.762939453,0,0,0,3.577135086,0.021095276
93.13113403,0.172579244,0.683240354,0.178310364,-0.686734736,149.787674,89.45715332,-72.99460602,1,0.000221891,0.000566701,0.000151648,14.06739235,0.064935297,0.025436709,90.67531586,61.2841568,-89.76203156,0.457763672,2.136230469,0.762939453,0,0,0,3.577435493,0.020965576
93.15209961,0.171975136,0.683478117,0.178107679,-0.686702192,146.1148224,89.4387207,-76.60022736,1,0.000221891,0.000566701,0.000151648,14.06739235,0.064935297,0.025436709,90.64881134,61.35175323,-89.82206726,0.457763672,2.136230469,0.762939453,0,0,0,3.577435493,0.020942688
93.1730423,0.171970814,0.683486283,0.178110301,-0.686694503,145.972168,89.43907166,-76.74299622,1,0.000221891,0.000566701,0.000151648,14.06739235,0.064935297,0.025436709,90.64650726,61.35190964,-89.82495117,0.457763672,2.136230469,0.762939453,0,0,0,3.577335358,0.020988464
93.19403076,0.171937406,0.683873236,0.17795831,-0.686356843,140.7907257,89.47177124,-81.90869141,1,0.000221891,0.000566701,0.000151648,14.06739235,0.064935297,0.025436709,90.52303314,61.36777115,-89.93849945,0.457763672,2.136230469,0.762939453,0,0,0,3.577335358,0.021652222
93.21568298,0.17162019,0.683887601,0.177882016,-0.68644172,140.5482483,89.4517746,-82.11831665,1,0.000221891,0.000566701,0.000151648,14.06739235,0.064935297,0.025436709,90.54496765,61.40063477,-89.93669128,0.457763672,2.136230469,0.762939453,0,0,0,3.577535391,0.020385742
93.23606873,0.171613798,0.683882058,0.177883118,-0.686448514,140.6206818,89.45070648,-82.0455246,1,0.000221891,0.000566701,0.000151648,14.06739235,0.064935297,0.025436709,90.54730225,61.40107727,-89.9349823,0.457763672,2.136230469,0.762939453,0,0,0,3.577535391,0.021774292
93.25784302,0.172126725,0.683789968,0.17805849,-0.686366498,141.8648987,89.47660828,-80.85839081,1,0.000221891,0.000566701,0.000151648,14.06739235,0.064935297,0.025436709,90.53430939,61.34354782,-89.91977692,0.457763672,2.136230469,0.762939453,0,0,0,3.577635527,0.021965027
93.27980804,0.172783896,0.683872461,0.178171292,-0.686089814,140.7901306,89.52853394,-81.99798584,1,0.000221891,0.000566701,0.000151648,14.06739235,0.064935297,0.025436709,90.45227051,61.27929306,-89.95631409,0.457763672,2.136230469,0.762939453,0,0,0,3.577635527,0.021995544
93.30180359,0.172778532,0.683870912,0.178174928,-0.686091721,140.7878265,89.52729034,-81.99983978,1,0.000221891,0.000566701,0.000151648,14.06739235,0.064935297,0.025436709,90.45320892,61.27943802,-89.95612335,0.457763672,2.136230469,0.762939453,0,0,0,3.577635527,0.020278931
93.32208252,0.172991499,0.68364954,0.178264871,-0.686235309,144.5523834,89.5243988,-78.26067352,1,0.000221891,0.000566701,0.000151648,14.06739235,0.064935297,0.025436709,90.50744629,61.25396347,-89.89161682,0.457763672,2.136230469,0.762939453,0,0,0,3.577735662,0.021064758
93.34314728,0.172994241,0.683643281,0.178262651,-0.686241388,144.6816254,89.52357483,-78.13124084,1,0.000221891,0.000566701,0.000151648,14.06739235,0.064935297,0.025436709,90.5092392,61.25391769,-89.8894043,0.457763672,2.136230469,0.762939453,0,0,0,3.577635527,0.021492004
93.36463928,0.17298384,0.683612525,0.178261161,-0.686275184,145.2042999,89.5223465,-77.60797119,1,0.000221891,0.000566701,0.000151648,14.06739235,0.064935297,0.025436709,90.52015686,61.25489807,-89.87923431,0.457763672,2.136230469,0.762939453,0,0,0,3.57803607,0.020988464
93.38562775,0.173601583,0.683502495,0.178461939,-0.686176538,147.2838135,89.55106354,-75.59687805,1,0.000221891,0.000566701,0.000151648,14.06739235,0.064935297,0.025436709,90.50390625,61.18643188,-89.86062622,0.457763672,2.136230469,0.762939453,0,0,0,3.57803607,0.020950317
93.40657806,0.173609018,0.683503151,0.178457156,-0.686175227,147.3270416,89.55194092,-75.55383301,1,0.000221891,0.000566701,0.000151648,14.06739235,0.064935297,0.025436709,90.50307465,61.18621445,-89.86044312,0.457763672,2.136230469,0.915527344,0,0,155.5432129,3.577335358,0.020980835
93.4275589,0.173413515,0.683457375,0.178427711,-0.686277807,147.813385,89.5331192,-75.04868317,1,0.000221891,0.000566701,0.000151648,14.06739235,0.064935297,0.025436709,90.53437805,61.20492554,-89.84302521,0.457763672,2.136230469,0.762939453,0,0,0,3.577335358,0.020942688
93.44850159,0.173943639,0.68346411,0.178566128,-0.686101019,148.1866608,89.56930542,-74.73119354,1,0.000221891,0.000566701,0.000151648,14.06739235,0.064935297,0.025436709,90.48754883,61.14910507,-89.85708618,0.457763672,2.136230469,0.762939453,0,0,0,3.577235222,0.020996094
93.46949768,0.173941582,0.683472514,0.17855981,-0.686094761,148.0716248,89.56930542,-74.84551239,1,0.000221891,0.000566701,0.000151648,14.06739235,0.064935297,0.025436709,90.48500061,61.14980698,-89.85928345,0.457763672,2.136230469,0.762939453,0,0,-246.9059906,3.577235222,0.021026611
93.49052429,0.174451575,0.683479667,0.178684831,-0.685925722,148.5302277,89.60534668,-74.44004822,1,0.000221891,0.000566701,0.000151648,14.06739235,0.064935297,0.025436709,90.4397583,61.09680939,-89.87232208,0.457763672,2.136230469,0.762939453,0,0,0,3.577435493,0.020782471
93.51130676,0.174930751,0.683493018,0.178868577,-0.685742378,148.2737579,89.63309479,-74.75197601,1,0.000221891,0.000566701,0.000151648,14.06739235,0.064935297,0.025436709,90.39505768,61.04140091,-89.8923111,0.457763672,2.136230469,0.762939453,0,0,0,3.577235222,0.021400452
93.53270721,0.174925834,0.683490217,0.178875387,-0.685744643,148.2557526,89.63202667,-74.76991272,1,0.000221891,0.000566701,0.000151648,14.06739235,0.064935297,0.025436709,90.39636993,61.04123688,-89.89198303,0.457763672,2.136230469,0.762939453,0,0,0,3.577235222,0.022262573
93.55496979,0.174289718,0.683550119,0.178749263,-0.685879767,146.0883636,89.592659,-76.87385559,1,0.000221891,0.000566701,0.000151648,14.06739235,0.064935297,0.025436709,90.43039703,61.10496521,-89.90061188,0.457763672,2.136230469,0.762939453,0,0,0,3.57703495,0.021575928
93.57654572,0.173707515,0.683584034,0.178603411,-0.68603164,145.0375214,89.55677032,-77.86367798,1,0.000221891,0.000566701,0.000151648,14.06739235,0.064935297,0.025436709,90.46834564,61.16582108,-89.89916992,0.457763672,2.136230469,0.762939453,0,0,0,3.57703495,0.022079468
93.59862518,0.17370607,0.683577657,0.178604648,-0.686038077,145.1447144,89.55632782,-77.75658417,1,0.000221891,0.000566701,0.000151648,14.06739235,0.064935297,0.025436709,90.47053528,61.16583252,-89.89719391,0.457763672,2.136230469,0.762939453,0,0,0,3.577135086,0.02191925
93.62054443,0.173814908,0.683316052,0.178687453,-0.686249495,149.5330353,89.5394516,-73.3841095,1,0.000221891,0.000566701,0.000151648,14.06739235,0.064935297,0.025436709,90.5462265,61.14959335,-89.81934357,0.457763672,2.136230469,0.762939453,0,0,0,3.577135086,0.020584106
93.64112854,0.173811346,0.683318257,0.178689048,-0.686247826,149.4728241,89.5394516,-73.4442749,1,0.000221891,0.000566701,0.000151648,14.06739235,0.064935297,0.025436709,90.54581451,61.14976501,-89.8201828,0.457763672,2.136230469,0.762939453,0,0,0,3.577235222,0.020935059
93.6620636,0.17325677,0.683517754,0.17850551,-0.686237156,145.8416595,89.52153015,-77.01383209,1,0.000221891,0.000566701,0.000151648,14.06739235,0.064935297,0.025436709,90.52778625,61.21159744,-89.86923218,0.457763672,2.136230469,0.762939453,0,0,0,3.577235222,0.021240234
93.68330383,0.172721043,0.683622301,0.178347915,-0.68630904,143.9473877,89.49526215,-78.85004425,1,0.000221891,0.000566701,0.000151648,14.06739235,0.064935297,0.025436709,90.53885651,61.26958847,-89.88976288,0.457763672,2.136230469,0.762939453,0,0,0,3.577235222,0.021018982
93.70432281,0.172719508,0.683627248,0.178353578,-0.68630302,143.828064,89.49526215,-78.96950531,1,0.000221891,0.000566701,0.000151648,14.06739235,0.064935297,0.025436709,90.53736115,61.26924515,-89.89185333,0.457763672,2.136230469,0.762939453,0,0,0,3.577335358,0.021087646
93.72541046,0.173320577,0.682861745,0.178776726,-0.686803341,154.3115692,89.45535278,-68.57183838,1,0.000221891,0.000566701,0.000151648,14.06739235,0.064935297,0.025436709,90.73516083,61.18281937,-89.67922974,0.457763672,2.136230469,0.762939453,0,0,0,3.577335358,0.020843506
93.74625397,0.172828883,0.683246732,0.178509057,-0.686613917,149.0942078,89.46550751,-73.72573853,1,0.000221891,0.000566701,0.000151648,14.06739235,0.064935297,0.025436709,90.65188599,61.24671936,-89.78121948,0.457763672,2.136230469,0.762939453,0,0,0,3.577435493,0.021072388
93.76732635,0.172826499,0.683250666,0.178509802,-0.68661046,149.0251923,89.46587372,-73.79470062,1,0.000221891,0.000566701,0.000151648,14.06739235,0.064935297,0.025436709,90.65081024,61.24686813,-89.78255463,0.457763672,2.136230469,0.762939453,0,0,0,3.577335358,0.020896912
93.78822327,0.172543958,0.683408439,0.178376019,-0.6865592,146.7975311,89.46331787,-75.98745728,1,0.000221891,0.000566701,0.000151648,14.06739235,0.064935297,0.025436709,90.62335205,61.28180313,-89.82243347,0.457763672,2.136230469,0.762939453,0,0,0,3.576834679,0.02104187
93.80926514,0.172957346,0.683298469,0.178503558,-0.686531544,148.6795044,89.48073578,-74.15083313,1,0.000221891,0.000566701,0.000151648,14.06739235,0.064935297,0.025436709,90.62427521,61.23651886,-89.79762268,0.457763672,2.136230469,0.762939453,0,0,0,3.576834679,0.0207901
93.83005524,0.172958985,0.683297932,0.178498894,-0.686532915,148.7224426,89.48110962,-74.10754395,1,0.000221891,0.000566701,0.000151648,14.06739235,0.064935297,0.025436709,90.62432861,61.23677444,-89.79704285,0.457763672,2.136230469,0.762939453,0,0,0,3.576534271,0.02141571
93.85147095,0.172626734,0.68313241,0.178492874,-0.686782718,150.3184814,89.44081879,-72.48309326,1,0.000221891,0.000566701,0.000151648,14.06739235,0.064935297,0.025436709,90.70613861,61.2647934,-89.74250793,0.457763672,2.136230469,0.762939453,0,0,0,3.576534271,0.02230835
93.8737793,0.172380835,0.683348417,0.17837514,-0.686660111,147.330246,89.44503784,-75.44123077,1,0.000221891,0.000566701,0.000151648,14.06739235,0.064935297,0.025436709,90.65662384,61.29541779,-89.80272675,0.457763672,2.136230469,0.762939453,0,0,0,3.576234102,0.021530151
93.89530945,0.172387376,0.683342218,0.178395525,-0.686659336,147.3150635,89.44397736,-75.45858765,1,0.000221891,0.000566701,0.000151648,14.06739235,0.064935297,0.025436709,90.65805817,61.29315567,-89.80245209,0.457763672,2.136230469,0.762939453,0,0,0,3.576133966,0.021965027
93.91727448,0.172521025,0.683091879,0.178502053,-0.68684721,150.5455017,89.42835999,-72.24824524,1,0.000221891,0.000566701,0.000151648,14.06739235,0.064935297,0.025436709,90.72822571,61.27278519,-89.73003387,0.457763672,2.136230469,0.762939453,0,0,0,3.576133966,0.021972656
93.93924713,0.172364727,0.682965875,0.17851682,-0.687007844,151.7211151,89.40356445,-71.06062317,1,0.000221891,0.000566701,0.000151648,14.06739235,0.064935297,0.025436709,90.78239441,61.2843895,-89.69017029,0.457763672,2.136230469,0.762939453,0,0,0,3.576133966,0.020835876
93.96008301,0.172367737,0.682965159,0.178519219,-0.687007189,151.7243042,89.40389252,-71.05796814,1,0.000221891,0.000566701,0.000151648,14.06739235,0.064935297,0.025436709,90.78237152,61.28394318,-89.69013977,0.457763672,2.136230469,0.762939453,0,0,0,3.576133966,0.021308899
93.98139191,0.172134146,0.683335125,0.178364977,-0.686737835,147.0392761,89.42460632,-75.71072388,1,0.000221891,0.000566701,0.000151648,14.06739235,0.064935297,0.025436709,90.68169403,61.31681824,-89.79743195,0.457763672,2.136230469,0.762939453,0,0,0,3.576133966,0.020889282
94.00228119,0.172133222,0.683335245,0.178363532,-0.686738312,147.0437622,89.42460632,-75.70593262,1,0.000221891,0.000566701,0.000151648,14.06739235,0.064935297,0.025436709,90.68173218,61.31701279,-89.79735565,0.457763672,2.136230469,0.762939453,0,0,0,3.576133966,0.020866394
94.02314758,0.172145694,0.683249593,0.178409338,-0.686808586,148.0074005,89.41650391,-74.74712372,1,0.000221891,0.000566701,0.000151648,14.06739235,0.064935297,0.025436709,90.7085495,61.31205368,-89.77332306,0.457763672,2.136230469,0.762939453,0,0,0,3.575933695,0.020874023
94.04402161,0.17238237,0.68306005,0.178502068,-0.68691361,150.6144867,89.41416168,-72.16743469,1,0.000221891,0.000566701,0.000151648,14.06739235,0.064935297,0.025436709,90.7502594,61.28429031,-89.71959686,0.457763672,2.136230469,0.762939453,0,0,0,3.575833559,0.020996094
94.0650177,0.172386706,0.683058858,0.178502604,-0.68691355,150.6384888,89.41416168,-72.14405823,1,0.000221891,0.000566701,0.000151648,14.06739235,0.064935297,0.025436709,90.75027466,61.28387833,-89.71926117,0.457763672,2.136230469,0.762939453,0,0,0,3.575533152,0.021095276
94.08611298,0.172070697,0.683087647,0.178384379,-0.686994851,150.1492157,89.39833832,-72.59683228,1,0.000221891,0.000566701,0.000151648,14.06739235,0.064935297,0.025436709,90.76772308,61.32014847,-89.71833038,0.457763672,2.136230469,0.762939453,0,0,0,3.575433016,0.020973206
94.10708618,0.172522753,0.682689726,0.178615242,-0.687217057,155.0428619,89.38515472,-67.76074219,1,0.000221891,0.000566701,0.000151648,14.06739235,0.064935297,0.025436709,90.85875702,61.26254272,-89.60884094,0.457763672,2.136230469,0.762939453,0,0,0,3.575333118,0.020965576
94.12805176,0.172521025,0.682688355,0.178607106,-0.687220931,155.1030426,89.38515472,-67.6995697,1,0.000221891,0.000566701,0.000151648,14.06739235,0.064935297,0.025436709,90.85936737,61.26335907,-89.60769653,0.457763672,2.136230469,0.762939453,0,0,0,3.575333118,0.02104187
94.14909363,0.172866747,0.682676911,0.178709865,-0.687118769,155.6866302,89.40586853,-67.15341949,1,0.000221891,0.000566701,0.000151648,14.06739235,0.064935297,0.025436709,90.83364868,61.22594452,-89.61310577,0.457763672,2.136230469,0.762939453,0,0,0,3.575032711,0.0210495
94.17014313,0.172694445,0.682724237,0.178676009,-0.687123895,154.7722778,89.39899445,-68.05052948,1,0.000221891,0.000566701,0.000151648,14.06739235,0.064935297,0.025436709,90.83289337,61.2432251,-89.62543488,0.457763672,2.136230469,0.762939453,0,0,0,3.575032711,0.022521973
94.1926651,0.172693089,0.682723284,0.178671047,-0.687126458,154.8102264,89.39899445,-68.01198578,1,0.000221891,0.000566701,0.000151648,14.06739235,0.064935297,0.025436709,90.83332062,61.2437439,-89.62470245,0.457763672,2.136230469,0.762939453,0,0,0,3.574932575,0.02141571
94.21408081,0.172764644,0.683135688,0.178536221,-0.686733544,150.371933,89.44963837,-72.44508362,1,0.000221891,0.000566701,0.000151648,14.06739235,0.064935297,0.025436709,90.69339752,61.24966431,-89.7473526,0.457763672,2.136230469,0.762939453,0,0,0,3.574732304,0.022033691
94.2361145,0.172937527,0.682930887,0.178609729,-0.686874628,153.2537384,89.44116974,-69.58400726,1,0.000221891,0.000566701,0.000151648,14.06739235,0.064935297,0.025436709,90.74533844,61.22882843,-89.6871109,0.457763672,2.136230469,0.762939453,0,0,0,3.574732304,0.021858215
94.25797272,0.172930434,0.682938099,0.17861107,-0.686868906,153.1255493,89.44152069,-69.7116394,1,0.000221891,0.000566701,0.000151648,14.06739235,0.064935297,0.025436709,90.74359131,61.22931671,-89.68956757,0.457763672,2.136230469,0.762939453,0,0,0,3.574331999,0.020080566
94.27805328,0.172638729,0.682774723,0.178590134,-0.687110066,154.5022736,89.40422821,-68.30865479,1,0.000221891,0.000566701,0.000151648,14.06739235,0.064935297,0.025436709,90.82137299,61.25511932,-89.6344223,0.457763672,2.136230469,0.762939453,0,0,0,3.574331999,0.021621704
94.29967499,0.172637105,0.682766259,0.178599223,-0.687116504,154.5470581,89.40258789,-68.26461029,1,0.000221891,0.000566701,0.000151648,14.06739235,0.064935297,0.025436709,90.82424927,61.25448608,-89.63244629,0.457763672,2.136230469,0.762939453,0,0,0,3.574331999,0.020721436
94.32039642,0.172656268,0.682900727,0.178571582,-0.686985195,153.0550385,89.41784668,-69.75569153,1,0.000221891,0.000566701,0.000151648,14.06739235,0.064935297,0.025436709,90.77891541,61.25540161,-89.67385864,0.457763672,2.136230469,0.762939453,0,0,0,3.574331999,0.020698547
94.34109497,0.172671229,0.6828233,0.178588077,-0.687054157,153.9985657,89.41149139,-68.81494141,1,0.000221891,0.000566701,0.000151648,14.06739235,0.064935297,0.025436709,90.80283356,61.25266266,-89.65007019,0.457763672,2.136230469,0.762939453,0,0,0,3.574131727,0.020904541
94.36199951,0.172668561,0.682830155,0.178589299,-0.68704766,153.8951416,89.41149139,-68.91836548,1,0.000221891,0.000566701,0.000151648,14.06739235,0.064935297,0.025436709,90.8008194,61.25278854,-89.65241241,0.457763672,2.136230469,0.762939453,0,0,0,3.574131727,0.021064758
94.38306427,0.171981171,0.683259308,0.178269401,-0.686876416,148.2978516,89.41216278,-74.43117523,1,0.000221891,0.000566701,0.000151648,14.06739235,0.064935297,0.025436709,90.71945953,61.33747482,-89.76445007,0.457763672,2.136230469,0.762939453,0,0,0,3.574131727,0.021011353
94.40407562,0.172474563,0.683187366,0.178375959,-0.686796606,149.8640747,89.43942261,-72.91500092,1,0.000221891,0.000566701,0.000151648,14.06739235,0.064935297,0.025436709,90.70124054,61.28731155,-89.75034332,0.305175781,2.136230469,0.762939453,-211.3405609,0,0,3.574131727,0.021324158
94.42539978,0.172476456,0.683184743,0.178382233,-0.686797142,149.8678436,89.43942261,-72.91179657,1,0.000221891,0.000566701,0.000151648,14.06739235,0.064935297,0.025436709,90.70193481,61.28663635,-89.75002289,0.457763672,2.136230469,0.762939453,0,0,0,3.574832439,0.021247864
94.44664764,0.172872618,0.683359087,0.1784762,-0.686499536,147.7033386,89.47923279,-75.11778259,1,0.000221891,0.000566701,0.000151648,14.06739235,0.064935297,0.025436709,90.61167908,61.2459259,-89.81501007,0.457763672,2.136230469,0.762939453,0,0,0,3.574532032,0.021224976
94.46787262,0.172568262,0.683445036,0.178398862,-0.686510801,146.1553497,89.46734619,-76.6339035,1,0.000221891,0.000566701,0.000151648,14.06739235,0.064935297,0.025436709,90.60935974,61.27791595,-89.83629608,0.457763672,2.136230469,0.762939453,0,0,0,3.574331999,0.020233154
94.48810577,0.172565788,0.683446825,0.178406432,-0.686507583,146.0762787,89.46587372,-76.71299744,1,0.000221891,0.000566701,0.000151648,14.06739235,0.064935297,0.025436709,90.60896301,61.27747345,-89.8375473,0.457763672,2.136230469,0.762939453,0,0,0,3.574331999,0.020935059
94.50904083,0.172254056,0.683765113,0.178207025,-0.686320662,141.6316833,89.47511292,-81.11489105,1,0.000221891,0.000566701,0.000151648,14.06739235,0.064935297,0.025436709,90.53154755,61.32046127,-89.92432404,0.457763672,2.136230469,0.762939453,0,0,0,3.574532032,0.021568298
94.53060913,0.172250956,0.683768094,0.178202137,-0.686319768,141.6061859,89.47548676,-81.13996887,1,0.000221891,0.000566701,0.000151648,14.06739235,0.064935297,0.025436709,90.53084564,61.32113266,-89.92487335,0.457763672,2.136230469,0.762939453,0,0,0,3.574532032,0.021026611
94.55163574,0.1720552,0.683769286,0.178090692,-0.686396658,141.9094849,89.46734619,-80.81058502,1,0.000221891,0.000566701,0.000151648,14.06739235,0.064935297,0.025436709,90.5470047,61.34679413,-89.91575623,0.305175781,2.136230469,0.762939453,0,0,0,3.574532032,0.021018982
94.57265472,0.17271848,0.683930278,0.178187788,-0.686044395,139.5505219,89.52563477,-83.23323822,1,0.000221891,0.000566701,0.000151648,14.06739235,0.064935297,0.025436709,90.4388504,61.28342438,-89.97657776,0.457763672,2.136230469,0.762939453,0,0,0,3.574732304,0.020965576
94.5936203,0.172712669,0.683928668,0.178185612,-0.68604809,139.5858002,89.52563477,-83.19750214,1,0.000221891,0.000566701,0.000151648,14.06739235,0.064935297,0.025436709,90.43987274,61.28409958,-89.97585297,0.457763672,2.136230469,0.762939453,0,0,0,3.574532032,0.020927429
94.61454773,0.172315642,0.684172571,0.177968144,-0.685961127,135.949173,89.52030182,-86.78256989,1,0.000221891,0.000566701,0.000151648,14.06739235,0.064935297,0.025436709,90.39357758,61.33557892,-90.03714752,0.457763672,2.136230469,0.762939453,0,0,0,3.574632168,0.021026611
94.63557434,0.172184631,0.684212685,0.177949071,-0.685958862,135.2371368,89.5118103,-87.48180389,1,0.000221891,0.000566701,0.000151648,14.06739235,0.064935297,0.025436709,90.39138794,61.34811401,-90.04869843,0.457763672,2.136230469,0.762939453,0,0,0,3.574031591,0.020973206
94.65654755,0.172198668,0.684219539,0.177947521,-0.685948908,135.127533,89.5134201,-87.59272003,1,0.000221891,0.000566701,0.000151648,14.06739235,0.064935297,0.025436709,90.3879776,61.34708023,-90.05080414,0.457763672,2.136230469,0.762939453,0,0,0,3.573931456,0.021125793
94.67767334,0.172404483,0.684482753,0.177899793,-0.685646951,130.3530426,89.5450058,-92.38028717,1,0.000221891,0.000566701,0.000151648,14.06739235,0.064935297,0.025436709,90.28482056,61.3339653,-90.13275146,0.457763672,2.136230469,0.762939453,0,0,0,3.573931456,0.020568848
94.69824219,0.172222808,0.684150934,0.177958116,-0.686008573,136.3334198,89.5118103,-86.38951111,1,0.000221891,0.000566701,0.000151648,14.06739235,0.064935297,0.025436709,90.40840149,61.34414673,-90.02924347,0.457763672,2.136230469,0.762939453,0,0,0,3.573931456,0.021392822
94.71963501,0.172221512,0.684151351,0.177963227,-0.686007142,136.2980042,89.51141357,-86.42527008,1,0.000221891,0.000566701,0.000151648,14.06739235,0.064935297,0.025436709,90.40837097,61.34382629,-90.02981567,0.457763672,2.136230469,0.762939453,0,0,0,3.57383132,0.020874023
94.74050903,0.172780052,0.683950186,0.178140655,-0.686021268,139.5414734,89.53479767,-83.24320221,1,0.000221891,0.000566701,0.000151648,14.06739235,0.064935297,0.025436709,90.42727661,61.28223038,-89.97906494,0.457763672,2.136230469,0.762939453,0,0,0,3.573731184,0.020988464
94.7614975,0.173486412,0.683978558,0.178300872,-0.685773015,138.8953094,89.58409882,-83.96215057,1,0.000221891,0.000566701,0.000151648,14.06739235,0.064935297,0.025436709,90.35887146,61.20983887,-90.00180817,0.457763672,2.136230469,0.762939453,0,0,0,3.573631048,0.020980835
94.78247833,0.173485219,0.683971584,0.178297907,-0.685781062,139.0587769,89.58363342,-83.79815674,1,0.000221891,0.000566701,0.000151648,14.06739235,0.064935297,0.025436709,90.36125183,61.210186,-89.99927521,0.457763672,2.136230469,0.762939453,0,0,0,3.574231863,0.020980835
94.80345917,0.173036411,0.684519351,0.177992567,-0.685427129,128.8014221,89.59217834,-93.99281311,1,0.000221891,0.000566701,0.000151648,14.06739235,0.064935297,0.025436709,90.2203064,61.27339554,-90.15219116,0.457763672,2.136230469,0.762939453,0,0,0,3.574231863,0.020935059
94.82439423,0.173098281,0.684153795,0.178102121,-0.685747981,136.1006622,89.57525635,-86.70778656,1,0.000221891,0.000566701,0.000151648,14.06739235,0.064935297,0.025436709,90.33435059,61.25898361,-90.0421524,0.457763672,2.136230469,0.762939453,0,0,0,3.574231863,0.020957947
94.84535217,0.173088774,0.684155941,0.178097218,-0.685749531,136.0785065,89.57479095,-86.72829437,1,0.000221891,0.000566701,0.000151648,14.06739235,0.064935297,0.025436709,90.3344574,61.26018906,-90.04243469,0.457763672,2.136230469,0.762939453,0,0,0,3.574331999,0.021018982
94.86637115,0.17229268,0.68435055,0.177843496,-0.685821652,133.2280426,89.53521729,-89.4911499,1,0.000221891,0.000566701,0.000151648,14.06739235,0.064935297,0.025436709,90.3374176,61.34799194,-90.08479309,0.457763672,2.136230469,0.762939453,0,0,0,3.574331999,0.021232605
94.88760376,0.172144145,0.684887946,0.177622989,-0.685379505,123.4960175,89.55500793,-99.19248962,1,0.000221891,0.000566701,0.000151648,14.06739235,0.064935297,0.025436709,90.17396545,61.37889862,-90.24220276,0.457763672,2.136230469,0.762939453,0,0,0,3.574231863,0.021278381
94.90888214,0.172153443,0.684885383,0.17762281,-0.685379744,123.5344772,89.55545044,-99.15500641,1,0.000221891,0.000566701,0.000151648,14.06739235,0.064935297,0.025436709,90.17402649,61.37813568,-90.24134064,0.457763672,2.136230469,0.762939453,0,0,0,3.574231863,0.021644592
94.93052673,0.171918005,0.684771359,0.177590534,-0.68556118,126.2850571,89.53690338,-96.38186646,1,0.000221891,0.000566701,0.000151648,14.06739235,0.064935297,0.025436709,90.23092651,61.40053558,-90.20142365,0.457763672,2.136230469,0.762939453,0,0,0,3.574131727,0.021942139
94.95246887,0.171918929,0.684776068,0.177590638,-0.685556173,126.1898804,89.53648376,-96.47688293,1,0.000221891,0.000566701,0.000151648,14.06739235,0.064935297,0.025436709,90.22930908,61.40044403,-90.20298767,0.457763672,2.136230469,0.762939453,0,0,0,3.574131727,0.021957397
94.97442627,0.171634808,0.684518337,0.177532569,-0.685899734,131.5267029,89.5098114,-91.111763,1,0.000221891,0.000566701,0.000151648,14.06739235,0.064935297,0.025436709,90.33746338,61.42900085,-90.11372375,0.457763672,2.136230469,0.762939453,0,0,0,3.574031591,0.022026062
94.99645233,0.171975836,0.684232533,0.177719489,-0.686051071,135.9349365,89.51261139,-86.74759674,1,0.000221891,0.000566701,0.000151648,14.06739235,0.064935297,0.025436709,90.402565,61.38478088,-90.03575897,0.457763672,2.136230469,0.762939453,0,0,0,3.574031591,0.020683289
95.01713562,0.171974942,0.684230089,0.177719116,-0.686053813,135.9803467,89.51261139,-86.70211029,1,0.000221891,0.000566701,0.000151648,14.06739235,0.064935297,0.025436709,90.40343475,61.3848877,-90.03492737,0.457763672,2.136230469,0.762939453,0,0,0,3.574131727,0.021286011
95.03842163,0.171938017,0.683825493,0.177824542,-0.686439037,142.3097687,89.47885895,-80.37850952,1,0.000221891,0.000566701,0.000151648,14.06739235,0.064935297,0.025436709,90.53882599,61.37886047,-89.91146088,0.457763672,2.136230469,0.762939453,0,0,0,3.574131727,0.020805359
95.05922699,0.171940461,0.683826029,0.177834854,-0.686435223,142.2465668,89.47847748,-80.44286346,1,0.000221891,0.000566701,0.000151648,14.06739235,0.064935297,0.025436709,90.53843689,61.37779999,-89.91251373,0.457763672,2.136230469,0.915527344,0,0,179.0937653,3.574532032,0.021011353
95.08023834,0.171920031,0.684198618,0.177718878,-0.686098993,136.508728,89.50623322,-86.16923523,1,0.000221891,0.000566701,0.000151648,14.06739235,0.064935297,0.025436709,90.4183197,61.3894577,-90.02462006,0.457763672,2.136230469,0.762939453,0,0,0,3.574532032,0.021003723
95.10124207,0.172256827,0.683874428,0.177871779,-0.686298132,141.7319489,89.50543976,-80.98699951,1,0.000221891,0.000566701,0.000151648,14.06739235,0.064935297,0.025436709,90.49607849,61.34835434,-89.93151093,0.457763672,2.136230469,0.762939453,0,0,0,3.574632168,0.020988464
95.12223053,0.172254026,0.683877587,0.177862391,-0.686298132,141.7285461,89.50623322,-80.98894501,1,0.000221891,0.000566701,0.000151648,14.06739235,0.064935297,0.025436709,90.49529266,61.34938049,-89.93173981,0.457763672,2.136230469,0.762939453,0,0,0,3.574932575,0.020889282
95.14311981,0.1725045,0.68357563,0.178030863,-0.686492264,146.2249756,89.49409485,-76.52780151,1,0.000221891,0.000566701,0.000151648,14.06739235,0.064935297,0.025436709,90.57269287,61.3141098,-89.84749603,0.457763672,2.136230469,0.762939453,0,0,0,3.575132847,0.021057129
95.16417694,0.172031134,0.683850825,0.177820057,-0.686391592,142.069397,89.48794556,-80.6260376,1,0.000221891,0.000566701,0.000151648,14.06739235,0.064935297,0.025436709,90.52274323,61.37149048,-89.91938019,0.457763672,2.136230469,0.762939453,0,0,0,3.575132847,0.0210495
95.18522644,0.171565533,0.684149444,0.177612081,-0.686264396,137.6233215,89.48149109,-85.01589966,1,0.000221891,0.000566701,0.000151648,14.06739235,0.064935297,0.025436709,90.46411896,61.42795944,-89.99951935,0.457763672,2.136230469,0.762939453,0,0,0,3.575132847,0.021003723
95.20623016,0.171558395,0.684152544,0.177602708,-0.686265528,137.6126099,89.48186493,-85.02507782,1,0.000221891,0.000566701,0.000151648,14.06739235,0.064935297,0.025436709,90.4637146,61.42934418,-89.99973297,0.457763672,2.136230469,0.762939453,0,0,0,3.575132847,0.022247314
95.22847748,0.171433777,0.684268773,0.177541286,-0.686196685,135.8551788,89.48149109,-86.76722717,1,0.000221891,0.000566701,0.000151648,14.06739235,0.064935297,0.025436709,90.43605042,61.44495773,-90.03266907,0.457763672,2.136230469,0.762939453,0,0,0,3.575232983,0.021743774
95.25022125,0.171437353,0.684271991,0.177546725,-0.686191142,135.7758179,89.48149109,-86.84748077,1,0.000221891,0.000566701,0.000151648,14.06739235,0.064935297,0.025436709,90.43468475,61.44419861,-90.03419495,0.457763672,2.136230469,0.762939453,0,0,0,3.575132847,0.021972656
95.27219391,0.171049103,0.684585929,0.177303895,-0.68603766,131.3771667,89.47998047,-91.19316864,1,0.000221891,0.000566701,0.000151648,14.06739235,0.064935297,0.025436709,90.364151,61.49704742,-90.11685181,0.457763672,2.136230469,0.762939453,0,0,0,3.575433016,0.022018433
95.29421234,0.170557365,0.684703946,0.177102432,-0.686094284,130.2740326,89.4575119,-92.23849487,1,0.000221891,0.000566701,0.000151648,14.06739235,0.064935297,0.025436709,90.36633301,61.55499268,-90.13889313,0.457763672,2.136230469,0.762939453,0,0,0,3.575633287,0.022186279
95.31639862,0.170765102,0.684664726,0.177159265,-0.686067164,130.6630554,89.4699173,-91.87145233,1,0.000221891,0.000566701,0.000151648,14.06739235,0.064935297,0.025436709,90.36196136,61.53289413,-90.13066864,0.457763672,2.136230469,0.762939453,0,0,0,3.575533152,0.021766663
95.33816528,0.170768037,0.684673488,0.177153587,-0.686059177,130.5357666,89.47103119,-91.99852753,1,0.000221891,0.000566701,0.000151648,14.06739235,0.064935297,0.025436709,90.35884094,61.53313065,-90.13306427,0.457763672,2.136230469,0.762939453,0,0,0,3.575633287,0.022010803
95.36017609,0.170207009,0.68492806,0.176877528,-0.686015666,127.5177383,89.45249176,-94.9467926,1,0.000221891,0.000566701,0.000151648,14.06739235,0.064935297,0.025436709,90.32171631,61.60310364,-90.19396973,0.457763672,2.136230469,0.762939453,0,0,0,3.575433016,0.022140503
95.38231659,0.171030492,0.684981287,0.177057013,-0.685711443,125.207222,89.50901794,-97.34089661,1,0.000221891,0.000566701,0.000151648,14.06739235,0.064935297,0.025436709,90.23584747,61.51932907,-90.22605133,0.457763672,2.136230469,0.762939453,0,0,0,3.575433016,0.021766663
95.40408325,0.171037391,0.684983492,0.177053973,-0.685708284,125.168457,89.5098114,-97.38008881,1,0.000221891,0.000566701,0.000151648,14.06739235,0.064935297,0.025436709,90.23455048,61.51899719,-90.22650909,0.457763672,2.136230469,0.762939453,0,0,0,3.575433016,0.022766113
95.42684937,0.171285629,0.685132444,0.177055582,-0.685497046,121.9253235,89.53227997,-100.6437988,1,0.000221891,0.000566701,0.000151648,14.06739235,0.064935297,0.025436709,90.16498566,61.49809265,-90.27546692,0.457763672,2.136230469,0.762939453,0,0,0,3.575433016,0.021492004
95.44834137,0.171286047,0.685130775,0.177053899,-0.685499072,121.9631424,89.53269958,-100.6061707,1,0.000221891,0.000566701,0.000151648,14.06739235,0.064935297,0.025436709,90.16551208,61.49820709,-90.27476501,0.457763672,2.136230469,0.762939453,0,0,0,3.575933695,0.021690369
95.47003174,0.170187652,0.68562752,0.176569015,-0.685401022,116.2108307,89.48338318,-106.2262268,1,0.000221891,0.000566701,0.000151648,14.06739235,0.064935297,0.025436709,90.09240723,61.63043213,-90.39907837,0.457763672,2.136230469,0.762939453,0,0,0,3.575933695,0.021949768
95.49198151,0.170388132,0.685493946,0.176628128,-0.685469508,118.0298843,89.49448395,-104.4286575,1,0.000221891,0.000566701,0.000151648,14.06739235,0.064935297,0.025436709,90.12002563,61.60877609,-90.35966492,0.457763672,2.136230469,0.762939453,0,0,0,3.575933695,0.020149231
95.51213074,0.170387864,0.685495853,0.176624075,-0.685468733,118.0048752,89.49487305,-104.4532928,1,0.000221891,0.000566701,0.000151648,14.06739235,0.064935297,0.025436709,90.11942291,61.6091423,-90.3599472,0.457763672,2.136230469,0.762939453,0,0,0,3.575933695,0.020950317
95.53308105,0.169561088,0.685414433,0.176389009,-0.685815692,121.5731583,89.44680023,-100.7965012,1,0.000221891,0.000566701,0.000151648,14.06739235,0.064935297,0.025436709,90.21463776,61.69793701,-90.31413269,0.457763672,2.136230469,0.762939453,0,0,0,3.575933695,0.0210495
95.55413055,0.169567719,0.685407698,0.176394999,-0.685819209,121.6595154,89.44644928,-100.7110519,1,0.000221891,0.000566701,0.000151648,14.06739235,0.064935297,0.025436709,90.21631622,61.69687653,-90.31240845,0.457763672,2.136230469,0.762939453,0,0,0,3.576033831,0.021141052
95.57527161,0.169632494,0.685530007,0.176292688,-0.685707211,119.7327805,89.46041107,-102.6346436,1,0.000221891,0.000566701,0.000151648,14.06739235,0.064935297,0.025436709,90.17050171,61.69998932,-90.34424591,0.457763672,2.136230469,0.762939453,0,0,0,3.576033831,0.020744324
95.59601593,0.169575781,0.685637414,0.176166907,-0.685646117,118.27668,89.46587372,-104.0755005,1,0.000221891,0.000566701,0.000151648,14.06739235,0.064935297,0.025436709,90.13961792,61.71519852,-90.36934662,0.457763672,2.136230469,0.762939453,0,0,0,3.576234102,0.02104187
95.6170578,0.169863507,0.68576926,0.176152274,-0.685446799,115.2769623,89.48986053,-107.0976715,1,0.000221891,0.000566701,0.000151648,14.06739235,0.064935297,0.025436709,90.07224274,61.69232559,-90.41146851,0.457763672,2.136230469,0.762939453,0,0,0,3.576133966,0.020996094
95.63805389,0.169872135,0.685759962,0.176159173,-0.685452223,115.4108047,89.490242,-106.9654236,1,0.000221891,0.000566701,0.000151648,14.06739235,0.064935297,0.025436709,90.07462311,61.69103622,-90.40895081,0.457763672,2.136230469,0.762939453,0,0,0,3.576734543,0.021018982
95.65907288,0.169818372,0.685610712,0.176167235,-0.685612679,118.2289429,89.48527527,-104.1434479,1,0.000221891,0.000566701,0.000151648,14.06739235,0.064935297,0.025436709,90.12848663,61.69490433,-90.36025238,0.457763672,2.136230469,0.762939453,0,0,0,3.576734543,0.020950317
95.68002319,0.169849858,0.685449421,0.17620568,-0.685756326,120.9786453,89.48490143,-101.399704,1,0.000221891,0.000566701,0.000151648,14.06739235,0.064935297,0.025436709,90.17932892,61.68912125,-90.30998993,0.457763672,2.136230469,0.762939453,0,0,0,3.576734543,0.021499634
95.70152283,0.169850111,0.685450017,0.176202595,-0.685756505,120.9761887,89.48527527,-101.40168,1,0.000221891,0.000566701,0.000151648,14.06739235,0.064935297,0.025436709,90.17912292,61.68936539,-90.30992126,0.457763672,2.136230469,0.762939453,0,0,0,3.576734543,0.02130127
95.7228241,0.170157462,0.685443759,0.176215962,-0.685683012,120.488945,89.50861359,-101.915863,1,0.000221891,0.000566701,0.000151648,14.06739235,0.064935297,0.025436709,90.1558075,61.66254425,-90.3086853,0.457763672,2.136230469,0.762939453,0,0,0,3.576534271,0.020278931
95.74310303,0.170155883,0.685444176,0.176214665,-0.68568331,120.4874802,89.50821686,-101.9172058,1,0.000221891,0.000566701,0.000151648,14.06739235,0.064935297,0.025436709,90.15579987,61.66278458,-90.30871582,0.457763672,2.136230469,0.762939453,0,0,0,3.576534271,0.021255493
95.76435852,0.16979523,0.68564111,0.176011786,-0.685627997,118.0828705,89.49642181,-104.2746735,1,0.000221891,0.000566701,0.000151648,14.06739235,0.064935297,0.025436709,90.12038422,61.70984268,-90.35729218,0.457763672,2.136230469,0.762939453,0,0,0,3.576434135,0.020812988
95.78517151,0.169796035,0.685639441,0.176014766,-0.685628712,118.1048737,89.49642181,-104.252594,1,0.000221891,0.000566701,0.000151648,14.06739235,0.064935297,0.025436709,90.1208725,61.70952606,-90.35697937,0.457763672,2.136230469,0.762939453,0,0,0,3.576434135,0.020866394
95.8060379,0.170574516,0.685285032,0.176322997,-0.685710609,122.4833221,89.53353882,-99.96527863,1,0.000221891,0.000566701,0.000151648,14.06739235,0.064935297,0.025436709,90.17380524,61.61880493,-90.26480103,0.457763672,2.136230469,0.762939453,0,0,0,3.576434135,0.02155304
95.82759094,0.17031683,0.685342908,0.176252604,-0.685734868,122.0135498,89.51826477,-100.4077606,1,0.000221891,0.000566701,0.000151648,14.06739235,0.064935297,0.025436709,90.17599487,61.64619064,-90.27824402,0.457763672,2.136230469,0.762939453,0,0,0,3.576434135,0.020935059
95.848526,0.169630826,0.685198188,0.176090881,-0.686091065,126.0695648,89.47251129,-96.28089142,1,0.000221891,0.000566701,0.000151648,14.06739235,0.064935297,0.025436709,90.28076172,61.71704483,-90.2172699,0.457763672,2.136230469,0.762939453,0,0,0,3.576334238,0.021057129
95.86958313,0.169626474,0.685202599,0.176094592,-0.686086774,125.9842911,89.47177124,-96.3663559,1,0.000221891,0.000566701,0.000151648,14.06739235,0.064935297,0.025436709,90.27965546,61.71709442,-90.21904755,0.457763672,2.136230469,0.762939453,0,0,0,3.576334238,0.020996094
95.89057922,0.169632569,0.685206056,0.176053092,-0.686092436,126.0588913,89.47511292,-96.28835297,1,0.000221891,0.000566701,0.000151648,14.06739235,0.064935297,0.025436709,90.2780304,61.72005463,-90.21668243,0.457763672,2.136230469,0.762939453,0,0,0,3.576434135,0.020980835
95.91156006,0.169635311,0.68520695,0.176044658,-0.686093032,126.0697174,89.47623444,-96.27732849,1,0.000221891,0.000566701,0.000151648,14.06739235,0.064935297,0.025436709,90.27752686,61.7205162,-90.21625519,0.457763672,2.136230469,0.762939453,0,0,0,3.576434135,0.020782471
95.93234253,0.169120163,0.685245812,0.17585732,-0.686229348,126.4750824,89.4482193,-95.81347656,1,0.000221891,0.000566701,0.000151648,14.06739235,0.064935297,0.025436709,90.30741882,61.77918243,-90.21372223,0.457763672,2.136230469,0.762939453,0,0,0,3.576434135,0.021476746
95.95381927,0.169005796,0.685461342,0.175716549,-0.68607837,123.4118652,89.45427704,-98.85506439,1,0.000221891,0.000566701,0.000151648,14.06739235,0.064935297,0.025436709,90.24536133,61.80052567,-90.27355957,0.457763672,2.136230469,0.762939453,0,0,0,3.576334238,0.021850586
95.97566986,0.16901283,0.685465217,0.175716251,-0.686072826,123.337944,89.45463562,-98.92930603,1,0.000221891,0.000566701,0.000151648,14.06739235,0.064935297,0.025436709,90.24349213,61.79996109,-90.27481079,0.457763672,2.136230469,0.762939453,0,0,0,3.576334238,0.021911621
95.99758148,0.169060618,0.685448825,0.175676137,-0.686087728,123.6753387,89.46186066,-98.59255981,1,0.000221891,0.000566701,0.000151648,14.06739235,0.064935297,0.025436709,90.24502563,61.79932404,-90.26593781,0.457763672,2.136230469,0.762939453,0,0,-155.5432129,3.576334238,0.022041321
96.0196228,0.16915068,0.685558677,0.17559588,-0.685976386,121.8674545,89.4777298,-100.4012451,1,0.000221891,0.000566701,0.000151648,14.06739235,0.064935297,0.025436709,90.20113373,61.79851532,-90.29559326,0.457763672,2.136230469,0.762939453,0,0,0,3.576234102,0.022140503
96.04176331,0.170002013,0.68547821,0.175815493,-0.685789943,121.2736359,89.52811432,-101.0847549,1,0.000221891,0.000566701,0.000151648,14.06739235,0.064935297,0.025436709,90.15743256,61.70902252,-90.28656006,0.457763672,2.136230469,0.762939453,0,0,0,3.576234102,0.021903992
96.0636673,0.170003444,0.685469151,0.175820142,-0.685797453,121.4350586,89.52770233,-100.9240341,1,0.000221891,0.000566701,0.000151648,14.06739235,0.064935297,0.025436709,90.16031647,61.70851898,-90.28394318,0.457763672,2.136230469,0.762939453,0,0,0,3.576234102,0.022254944
96.08592224,0.170582011,0.685206771,0.176026732,-0.685863018,125.1099854,89.55588531,-97.31468201,1,0.000221891,0.000566701,0.000151648,14.06739235,0.064935297,0.025436709,90.19921875,61.64295959,-90.21398926,0.457763672,2.136230469,0.762939453,0,0,0,3.576234102,0.021621704
96.10754395,0.170570895,0.685217857,0.176025495,-0.685855031,124.8993988,89.55545044,-97.52397919,1,0.000221891,0.000566701,0.000151648,14.06739235,0.064935297,0.025436709,90.19647217,61.64398193,-90.21756744,0.457763672,2.136230469,0.762939453,0,0,0,3.576234102,0.021949768
96.12949371,0.170479387,0.684945345,0.176088065,-0.686133921,130.2003479,89.53606415,-92.22042847,1,0.000221891,0.000566701,0.000151648,14.06739235,0.064935297,0.025436709,90.29412079,61.64638138,-90.13278961,0.457763672,2.136230469,0.762939453,0,0,0,3.576234102,0.021957397
96.15145111,0.169648826,0.685373008,0.175705954,-0.686010599,124.1938248,89.50662994,-98.1258316,1,0.000221891,0.000566701,0.000151648,14.06739235,0.064935297,0.025436709,90.22157288,61.74769592,-90.24276733,0.457763672,2.136230469,0.762939453,0,0,0,3.576234102,0.020591736
96.17204285,0.169643536,0.685374558,0.175701827,-0.686011434,124.1855774,89.50662994,-98.13311768,1,0.000221891,0.000566701,0.000151648,14.06739235,0.064935297,0.025436709,90.22150421,61.74848557,-90.24293518,0.457763672,2.136230469,0.762939453,0,0,0,3.576434135,0.021072388
96.19311523,0.169405922,0.685716689,0.175451338,-0.685792327,118.8810883,89.51020813,-103.3972549,1,0.000221891,0.000566701,0.000151648,14.06739235,0.064935297,0.025436709,90.12761688,61.7892189,-90.33571625,0.457763672,2.136230469,0.762939453,0,0,0,3.576534271,0.021217346
96.21433258,0.169406444,0.685726404,0.175438479,-0.68578577,118.7273254,89.51141357,-103.549736,1,0.000221891,0.000566701,0.000151648,14.06739235,0.064935297,0.025436709,90.12432861,61.79023743,-90.33787537,0.457763672,2.136230469,0.762939453,0,0,0,3.576534271,0.021011353
96.23534393,0.170180649,0.685647368,0.175618157,-0.685627043,117.9891815,89.55898285,-104.3676529,1,0.000221891,0.000566701,0.000151648,14.06739235,0.064935297,0.025436709,90.08666229,61.71055603,-90.32590485,0.457763672,2.136230469,0.915527344,0,0,0,3.576534271,0.020866394
96.25621033,0.169556707,0.685958683,0.175355285,-0.685537636,114.0133972,89.52977753,-108.2693787,1,0.000221891,0.000566701,0.000151648,14.06739235,0.064935297,0.025436709,90.03474426,61.78455734,-90.40795135,0.457763672,2.136230469,0.762939453,0,0,0,3.576634407,0.021003723
96.27721405,0.170015395,0.685737431,0.175517812,-0.685603797,116.8010712,89.55500793,-105.5335388,1,0.000221891,0.000566701,0.000151648,14.06739235,0.064935297,0.025436709,90.07046509,61.73273849,-90.34751892,0.457763672,2.136230469,0.762939453,0,0,0,3.576634407,0.020996094
96.29821014,0.170011178,0.685736418,0.175516292,-0.685606182,116.8368683,89.55413055,-105.4971313,1,0.000221891,0.000566701,0.000151648,14.06739235,0.064935297,0.025436709,90.07112122,61.73321533,-90.34708405,0.457763672,2.136230469,0.762939453,0,0,0,3.576434135,0.020988464
96.31919861,0.170493364,0.685448229,0.175692737,-0.685729444,121.3153687,89.57849121,-101.0735779,1,0.000221891,0.000566701,0.000151648,14.06739235,0.064935297,0.025436709,90.12682343,61.67826462,-90.26586151,0.457763672,2.136230469,0.762939453,0,0,-155.5432129,3.576434135,0.020988464
96.34018707,0.170675382,0.685530961,0.175720081,-0.68559444,118.9494247,89.59169769,-103.457634,1,0.000221891,0.000566701,0.000151648,14.06739235,0.064935297,0.025436709,90.08438873,61.6607399,-90.29537201,0.457763672,2.136230469,0.762939453,0,0,0,3.576634407,0.020828247
96.36101532,0.170677826,0.685531974,0.175721392,-0.685592473,118.9159088,89.59169769,-103.4912033,1,0.000221891,0.000566701,0.000151648,14.06739235,0.064935297,0.025436709,90.08384705,61.66042328,-90.29582214,0.457763672,2.136230469,0.762939453,0,0,0,3.576634407,0.02142334
96.38243866,0.170288533,0.685870647,0.175493434,-0.68540895,113.1335754,89.57756805,-109.2217636,1,0.000221891,0.000566701,0.000151648,14.06739235,0.064935297,0.025436709,90.00376892,61.71188354,-90.38935852,0.457763672,2.136230469,0.762939453,0,0,0,3.576734543,0.021980286
96.40441895,0.170278877,0.685874462,0.175495848,-0.685406923,113.0812454,89.57663727,-109.2735977,1,0.000221891,0.000566701,0.000151648,14.06739235,0.064935297,0.025436709,90.00328064,61.71249008,-90.39085388,0.457763672,2.136230469,0.762939453,0,0,0,3.576634407,0.021842957
